[
  {
    "name": "Birigui",
    "stateCode": "SP",
    "country": "Brasil",
    "lat": -21.2892,
    "lon": -50.3411
  },
  {
    "name": "São Paulo",
    "stateCode": "SP",
    "country": "Brasil",
    "lat": -23.5489,
    "lon": -46.6388
  },
  {
    "name": "Medellín",
    "stateCode": "ANT",
    "country": "Colombia",
    "lat": 6.230833,
    "lon": -75.590553
  },
  {
    "name": "Bogotá",
    "stateCode": "CUN",
    "country": "Colombia",
    "lat": 4.624335,
    "lon": -74.063644
  },
  {
    "name": "New York",
    "stateCode": "NY",
    "country": "United States",
    "lat": 40.730610,
    "lon": -73.935242
  },
  {
    "name": "Washington",
    "stateCode": "WA",
    "country": "United States",
    "lat": 38.9071923,
    "lon": -77.0368707
  }
]
